[
  {"id": 1,  "creature_id": 1,  "institution": "Smithsonian Institution",               "city": "Washington D.C.", "country": "USA",     "lat": 38.8913, "lng": -77.0261, "acquisition_year": 1910, "condition": "preserved", "on_display": false},
  {"id": 2,  "creature_id": 1,  "institution": "Muséum National d'Histoire Naturelle",  "city": "Paris",           "country": "France",  "lat": 48.8441, "lng": 2.3572,   "acquisition_year": 1921, "condition": "preserved", "on_display": true},
  {"id": 3,  "creature_id": 1,  "institution": "Natural History Museum",                "city": "London",          "country": "UK",      "lat": 51.4966, "lng": -0.1764,  "acquisition_year": 1935, "condition": "preserved", "on_display": false},
  {"id": 4,  "creature_id": 2,  "institution": "Monterey Bay Aquarium",                 "city": "Monterey",        "country": "USA",     "lat": 36.6182, "lng": -121.9018,"acquisition_year": 1998, "condition": "live",      "on_display": true},
  {"id": 5,  "creature_id": 2,  "institution": "Smithsonian Institution",               "city": "Washington D.C.", "country": "USA",     "lat": 38.8913, "lng": -77.0261, "acquisition_year": 1945, "condition": "preserved", "on_display": true},
  {"id": 6,  "creature_id": 2,  "institution": "Museum Victoria",                       "city": "Melbourne",       "country": "Australia","lat": -37.8102,"lng": 144.9711, "acquisition_year": 1987, "condition": "preserved", "on_display": false},
  {"id": 7,  "creature_id": 3,  "institution": "Monterey Bay Aquarium Research Institute","city": "Moss Landing",  "country": "USA",     "lat": 36.8024, "lng": -121.7893,"acquisition_year": 1992, "condition": "preserved", "on_display": false},
  {"id": 8,  "creature_id": 3,  "institution": "Woods Hole Oceanographic Institution",  "city": "Woods Hole",      "country": "USA",     "lat": 41.5238, "lng": -70.6742, "acquisition_year": 2001, "condition": "preserved", "on_display": false},
  {"id": 9,  "creature_id": 4,  "institution": "Natural History Museum",                "city": "London",          "country": "UK",      "lat": 51.4966, "lng": -0.1764,  "acquisition_year": 1882, "condition": "preserved", "on_display": true},
  {"id": 10, "creature_id": 4,  "institution": "Smithsonian Institution",               "city": "Washington D.C.", "country": "USA",     "lat": 38.8913, "lng": -77.0261, "acquisition_year": 1901, "condition": "preserved", "on_display": true},
  {"id": 11, "creature_id": 4,  "institution": "Tokyo Sea Life Park",                   "city": "Tokyo",           "country": "Japan",   "lat": 35.6614, "lng": 139.8597, "acquisition_year": 2015, "condition": "live",      "on_display": true},
  {"id": 12, "creature_id": 5,  "institution": "Monterey Bay Aquarium",                 "city": "Monterey",        "country": "USA",     "lat": 36.6182, "lng": -121.9018,"acquisition_year": 2003, "condition": "preserved", "on_display": false},
  {"id": 13, "creature_id": 5,  "institution": "Muséum National d'Histoire Naturelle",  "city": "Paris",           "country": "France",  "lat": 48.8441, "lng": 2.3572,   "acquisition_year": 1899, "condition": "preserved", "on_display": false},
  {"id": 14, "creature_id": 6,  "institution": "Monterey Bay Aquarium Research Institute","city": "Moss Landing",  "country": "USA",     "lat": 36.8024, "lng": -121.7893,"acquisition_year": 2004, "condition": "live",      "on_display": false},
  {"id": 15, "creature_id": 6,  "institution": "Scripps Institution of Oceanography",   "city": "La Jolla",        "country": "USA",     "lat": 32.8669, "lng": -117.2530,"acquisition_year": 1942, "condition": "preserved", "on_display": true},
  {"id": 16, "creature_id": 6,  "institution": "Osaka Aquarium Kaiyukan",               "city": "Osaka",           "country": "Japan",   "lat": 34.6547, "lng": 135.4281, "acquisition_year": 2011, "condition": "preserved", "on_display": true},
  {"id": 17, "creature_id": 7,  "institution": "Natural History Museum",                "city": "London",          "country": "UK",      "lat": 51.4966, "lng": -0.1764,  "acquisition_year": 1886, "condition": "preserved", "on_display": true},
  {"id": 18, "creature_id": 7,  "institution": "Muséum National d'Histoire Naturelle",  "city": "Paris",           "country": "France",  "lat": 48.8441, "lng": 2.3572,   "acquisition_year": 1901, "condition": "skeleton",  "on_display": true},
  {"id": 19, "creature_id": 7,  "institution": "Tokyo Sea Life Park",                   "city": "Tokyo",           "country": "Japan",   "lat": 35.6614, "lng": 139.8597, "acquisition_year": 2008, "condition": "preserved", "on_display": false},
  {"id": 20, "creature_id": 8,  "institution": "Scripps Institution of Oceanography",   "city": "La Jolla",        "country": "USA",     "lat": 32.8669, "lng": -117.2530,"acquisition_year": 1955, "condition": "preserved", "on_display": false},
  {"id": 21, "creature_id": 8,  "institution": "Museum Victoria",                       "city": "Melbourne",       "country": "Australia","lat": -37.8102,"lng": 144.9711, "acquisition_year": 1999, "condition": "preserved", "on_display": false},
  {"id": 22, "creature_id": 9,  "institution": "Osaka Aquarium Kaiyukan",               "city": "Osaka",           "country": "Japan",   "lat": 34.6547, "lng": 135.4281, "acquisition_year": 2006, "condition": "live",      "on_display": true},
  {"id": 23, "creature_id": 9,  "institution": "Tokyo Sea Life Park",                   "city": "Tokyo",           "country": "Japan",   "lat": 35.6614, "lng": 139.8597, "acquisition_year": 2010, "condition": "live",      "on_display": true},
  {"id": 24, "creature_id": 10, "institution": "Tokyo Sea Life Park",                   "city": "Tokyo",           "country": "Japan",   "lat": 35.6614, "lng": 139.8597, "acquisition_year": 2004, "condition": "preserved", "on_display": true},
  {"id": 25, "creature_id": 10, "institution": "Smithsonian Institution",               "city": "Washington D.C.", "country": "USA",     "lat": 38.8913, "lng": -77.0261, "acquisition_year": 1902, "condition": "preserved", "on_display": false},
  {"id": 26, "creature_id": 10, "institution": "Natural History Museum",                "city": "London",          "country": "UK",      "lat": 51.4966, "lng": -0.1764,  "acquisition_year": 1900, "condition": "skeleton",  "on_display": true},
  {"id": 27, "creature_id": 11, "institution": "Monterey Bay Aquarium Research Institute","city": "Moss Landing",  "country": "USA",     "lat": 36.8024, "lng": -121.7893,"acquisition_year": 2008, "condition": "preserved", "on_display": false},
  {"id": 28, "creature_id": 11, "institution": "Woods Hole Oceanographic Institution",  "city": "Woods Hole",      "country": "USA",     "lat": 41.5238, "lng": -70.6742, "acquisition_year": 2010, "condition": "preserved", "on_display": false},
  {"id": 29, "creature_id": 12, "institution": "Natural History Museum",                "city": "London",          "country": "UK",      "lat": 51.4966, "lng": -0.1764,  "acquisition_year": 1845, "condition": "preserved", "on_display": true},
  {"id": 30, "creature_id": 12, "institution": "Muséum National d'Histoire Naturelle",  "city": "Paris",           "country": "France",  "lat": 48.8441, "lng": 2.3572,   "acquisition_year": 1856, "condition": "preserved", "on_display": true},
  {"id": 31, "creature_id": 12, "institution": "Scripps Institution of Oceanography",   "city": "La Jolla",        "country": "USA",     "lat": 32.8669, "lng": -117.2530,"acquisition_year": 1961, "condition": "preserved", "on_display": false}
]
